営業種別,名称,所在地,電話番号,部屋数,定員,緯度,経度
旅館・ホテル,ホテル大名,あわら市二面5ｰ2,0776-77-2174,23,164,36.23336,136.199166
旅館・ホテル,ホテルアイネ,あわら市二面2ｰ50,0776-78-7035,13,46,36.234874,136.20096
旅館・ホテル,夢屋華築紫,あわら市二面2ｰ18ｰ19,0776-77-3800,15,176,36.230713,136.196436
旅館・ホテル,湯快リゾート青雲閣,あわら市二面68ｰ1,0776-77-2530,86,866,36.232199,136.196202
旅館・ホテル,長谷川,あわら市二面48ｰ14,0776-77-2164,38,333,36.229602,136.194194
旅館・ホテル,キャンブレトマロッサ,あわら市二面3ｰ11,0776-78-5069,16,72,36.234146,136.200135
旅館・ホテル,大江戸温泉物語あわら,あわら市二面48ｰ10,0776-77-1726,95,809,36.230247,136.194603
旅館・ホテル,べにや,あわら市温泉4丁目510,0776-77-2333,27,193,36.22522,136.1928
旅館・ホテル,あわらグランドホテル,あわら市温泉4丁目2,0776-78-5500,44,316,36.224864,136.194384
旅館・ホテル,清風荘,あわら市温泉3丁目803,0776-77-2500,177,1192,36.22342,136.191073
旅館・ホテル,白和荘,あわら市温泉5丁目1201,0776-78-7000,19,97,36.228033,136.191956
旅館・ホテル,灰屋,あわら市温泉2丁目205,0776-78-5555,63,574,36.225758,136.19502
旅館・ホテル,あわらの宿八木,あわら市温泉4丁目418,0776-77-2008,74,673,36.225875,136.192511
旅館・ホテル,龍泉,あわら市温泉3丁目402,0776-77-2065,5,17,36.223422,136.192225
旅館・ホテル,つるや,あわら市温泉4丁目601,0776-77-2001,37,392,36.224878,136.192673
旅館・ホテル,ホテル天隆,あわら市温泉5丁目1525,0776-78-5333,10,48,36.228269,136.193228
旅館・ホテル,花の宿福寿,あわら市温泉4丁目801,0776-77-2280,19,147,36.225122,136.192006
旅館・ホテル,湯元の宿芦原荘,あわら市温泉1丁目309,0776-77-2110,18,133,36.224525,136.19302
旅館・ホテル,みのや泰平閣,あわら市舟津50ｰ1ｰ1,0776-78-5566,67,593,36.223586,136.18814
旅館・ホテル,芦原国際ホテル美松,あわら市舟津26ｰ10,0776-77-2600,88,550,36.227222,136.186506
旅館・ホテル,グランディア芳泉,あわら市舟津43ｰ26,0776-77-2555,116,1694,36.2221,136.188117
旅館・ホテル,まつや千千,あわら市舟津31ｰ24,0776-77-2560,116,1412,36.223689,136.187615
旅館・ホテル,㈱ホテルゆらく,あわら市舟津2ｰ15,0776-77-7700,31,267,36.226725,136.18985
旅館・ホテル,愛犬と過ごす本格旅館月香,あわら市舟津第9号8番地,0776-97-8521,25,352,36.23073,136.193919
旅館・ホテル,福井県市町村職員共済組合芦原保養所越路,あわら市東温泉2丁目201,0776-77-3151,30,265,36.220148,136.200819
旅館・ホテル,株式会社ホテルぐらばあ亭,あわら市田中々8ｰ1,0776-77-7333,46,341,36.218556,136.19267
旅館・ホテル,福井銀行健康保健組合芦原保養所若竹荘,あわら市堀江十楽1ｰ55,0776-77-2375,14,125,36.222967,136.190962
旅館・ホテル,千代松,あわら市西温泉1丁目105ｰ1,0776-77-3214,8,28,36.220867,136.185504
旅館・ホテル,政竜閣,あわら市西温泉1丁目102,0776-77-3100,40,356,36.220775,136.186037
旅館・ホテル,湖畔荘ｈａｎａゆらり,あわら市北潟211,0776-79-1124,18,140,36.26163,136.231814
旅館・ホテル,平和館,あわら市春宮1丁目11ｰ51,0776-73-0173,14,40,36.214755,136.233927
旅館・ホテル,北風旅館,あわら市春宮2丁目7ｰ41,0776-73-0453,11,30,36.215691,136.231869
旅館・ホテル,光成,あわら市春宮3丁目8ｰ11,0776-73-0815,6,19,36.216879,136.228778
旅館・ホテル,まつや別館,あわら市春宮3丁目4ｰ11,0776-73-0082,5,15,36.216802,136.226245
旅館・ホテル,フォレストビラ,"あわら市熊坂26字松の腰4ｰ1,5ｰ1,6ｰ1",0776-74-2377,9,48,36.235704,136.286457
旅館・ホテル,モテルエイト,あわら市笹岡30ｰ46,0776-74-1236,16,49,36.210129,136.27209
旅館・ホテル,ホテルちょっとＰ２,あわら市瓜生20ｰ10ｰ1,0776-74-1316,14,44,36.187065,136.273366
旅館・ホテル,ホテル京都,あわら市瓜生23ｰ13,0776-74-1115,10,32,36.188431,136.274424
旅館・ホテル,ホテルきらら,あわら市瓜生11ｰ1ｰ1,0776-74-1323,10,30,36.180704,136.273349
旅館・ホテル,ホテルルートイン武生インター,越前市葛岡町6字15‐5,0778-23-5722,161,389,35.902755,136.192602
旅館・ホテル,西本,越前市府中1丁目1丁目14ｰ21,,5,13,35.903335,136.170632
旅館・ホテル,池田屋旅館,越前市府中2丁目3ｰ4,0778-22-0777,12,26,35.904704,136.169046
旅館・ホテル,ホテルクラウンヒルズ武生,越前市府中1丁目2ｰ3,0778-23-8100,124,186,35.902746,136.170482
旅館・ホテル,花びし旅館,越前市幸町8ｰ11,,5,10,35.903979,136.167688
旅館・ホテル,プリンスホテルタケフ,越前市横市町39ｰ8ｰ3,0778-23-1001,41,54,35.904718,136.191557
旅館・ホテル,八ツ杉森林学習センター,越前市別印町19ｰ1ｰ1,0778-42-3800,11,20,35.88821,136.308313
旅館・ホテル,寿屋,越前市粟田部町29ｰ41,0778-42-0022,9,23,35.917231,136.24071
旅館・ホテル,旅館熱海荘,越前市粟田部町31ｰ56,0778-42-0249,8,20,35.914657,136.241632
旅館・ホテル,なにわや旅館,越前市家久町99ｰ14ｰ9,0778-22-7128,6,10,35.919307,136.167116
旅館・ホテル,阿免屋,越前市京町1丁目1丁目3ｰ1,,7,36,35.902523,136.165164
旅館・ホテル,旅館あかし,越前市京町3丁目1ｰ3,0778-22-0232,17,62,35.903784,136.1639
旅館・ホテル,赤星亭,越前市小松2丁目3ｰ22,0778-22-3230,27,64,35.905856,136.1573
旅館・ホテル,ホテルマドンナ,越前市四郎丸町32ｰ6ｰ1,0778-23-3210,14,28,35.873946,136.161757
旅館・ホテル,ホテルピュア,越前市四郎丸町3字4ｰ4,0778-23-1357,16,32,35.874527,136.160232
旅館・ホテル,しきぶ温泉湯楽里,越前市白崎町68ｰ8,0778-25-7800,12,88,35.863405,136.14457
旅館・ホテル,ホテルかすが,越前市春日野町134ｰ1,0778-22-6370,5,14,35.857689,136.145892
旅館・ホテル,ホテルかすが,越前市春日野町134ｰ1,0778-22-6371,7,26,35.857689,136.145892
旅館・ホテル,ホテルシンフォニー,越前市春日野町73ｰ2,,14,28,35.853859,136.144242
旅館・ホテル,ふくい農業ビジネスセンター,越前市安養寺町142ｰ27ｰ1,0778-29-2131,44,126,35.920133,136.075641
旅館・ホテル,松岡サウナ,吉田郡永平寺町松岡薬師3丁目89,0776-61-0727,5,19,36.094547,136.304725
旅館・ホテル,永平寺町浄法寺山青少年旅行村バンガロー施設,吉田郡永平寺町上浄法寺68ｰ1ｰ2,0776-63-2867,5,35,36.122531,136.369349
旅館・ホテル,つむろや旅館,吉田郡永平寺町東古市13ｰ26,0776-63-2074,11,36,36.098325,136.325963
旅館・ホテル,東喜家,吉田郡永平寺町志比24ｰ6,0776-63-3043,8,35,36.055609,136.352534
旅館・ホテル,大本山永平寺,吉田郡永平寺町志比5号15番地,0776-63-3108,19,314,36.055778,136.354536
旅館・ホテル,永平寺親禅の宿柏樹関,吉田郡永平寺町志比6ｰ1,0776-63-1188,18,108,36.054953,136.352551
旅館・ホテル,昭扇閣べにや,今立郡池田町稲荷34ｰ19ｰ1,0778-44-6005,6,24,35.889194,136.342926
旅館・ホテル,池田溪流温泉冠荘,今立郡池田町志津原14ｰ17,0778-44-7755,19,85,35.863981,136.36337
旅館・ホテル,ファームインファームハウスコムニタ,今立郡池田町土合皿尾2字22ｰ1,0778-44-7744,6,11,35.867325,136.360356
旅館・ホテル,福澤,坂井市丸岡町山口60ｰ22,0776-67-2121,5,21,36.161428,136.332075
旅館・ホテル,丸岡温泉たけくらべ,坂井市丸岡町山竹田88ｰ8,0776-67-2333,20,149,36.172243,136.331705
旅館・ホテル,ホテル２４ウィンザー,坂井市丸岡町一本田福所18ｰ1,0776-66-0505,10,35,36.163348,136.262693
旅館・ホテル,ホテルピンクのおさる,坂井市丸岡町上久米田4ｰ6,0776-66-5223,10,36,36.108557,136.321989
旅館・ホテル,ＨＯＴＥＬｃｏｏｊｕ,坂井市丸岡町羽崎22ｰ25,0776-67-2400,53,269,36.112704,136.257346
旅館・ホテル,ホテルＡＺ,坂井市丸岡町磯部新保6ｰ4ｰ1,0776-66-4660,17,109,36.117776,136.257559
旅館・ホテル,ホテル風の丘,坂井市三国町平山30ｰ10ｰ1,0776-81-2406,14,87,36.237921,136.16794
旅館・ホテル,民宿ふるき別館,坂井市三国町新保40ｰ26ｰ1,0776-82-5800,13,50,36.204235,136.143916
旅館・ホテル,センチュリオンホテルリゾート＆スパテクノポート福井,坂井市三国町黒目22ｰ51ｰ2,0776-81-7000,56,407,36.18887,136.133404
旅館・ホテル,宮太旅館,坂井市三国町南本町3丁目6ｰ55,0776-82-0038,5,34,36.211945,136.151032
旅館・ホテル,ふくや,坂井市三国町緑ｹ丘4丁目1ｰ46,0776-81-3988,11,55,36.220783,136.153201
旅館・ホテル,三国観光ホテル,坂井市三国町緑ｹ丘4丁目4ｰ8,0776-81-3280,104,712,36.221689,136.151248
旅館・ホテル,ビジネスホテルつるや,坂井市三国町緑ｹ丘2丁目5ｰ27,0776-81-9090,24,55,36.22113,136.154439
旅館・ホテル,吉岡旅館,坂井市三国町宿3ｰ10ｰ2,0776-81-3240,5,17,36.221919,136.136397
旅館・ホテル,ニュ－越前,坂井市三国町宿2ｰ3ｰ20,0776-82-3318,9,29,36.222858,136.140177
旅館・ホテル,ばんこ旅館,坂井市三国町宿3丁目7ｰ25,0776-81-2956,10,50,36.223352,136.135977
旅館・ホテル,かに久,坂井市三国町宿3ｰ12ｰ22,0776-82-1040,15,57,36.221763,136.136544
旅館・ホテル,ゑびす亭,坂井市三国町宿3丁目29ｰ32(12-13),0776-82-5124,10,36,36.220983,136.142135
旅館・ホテル,憩いの宿なかもと,坂井市三国町宿3ｰ7ｰ27,0776-82-2600,12,72,36.223166,136.136033
旅館・ホテル,民宿なかじま,坂井市三国町宿3ｰ5ｰ21,0776-81-2852,5,22,36.22311,136.136424
旅館・ホテル,三国屋,坂井市三国町宿3ｰ6ｰ15,0776-82-2750,14,67,36.223691,136.136147
旅館・ホテル,料理旅館望洋楼,坂井市三国町米ｹ脇4ｰ3ｰ38,0776-82-0067,10,67,36.225618,136.132325
旅館・ホテル,東尋坊研修センター,坂井市三国町米ｹ脇3丁目413,0776-81-6667,7,84,36.226232,136.133977
旅館・ホテル,汐風の館民宿七福,坂井市三国町米ｹ脇2ｰ3ｰ56,0776-82-1189,21,82,36.230507,136.133974
旅館・ホテル,ゲストハウス海翔百寿互,坂井市三国町米ｹ脇4丁目8ｰ34,0776-82-0111,5,28,36.225413,136.133805
旅館・ホテル,民宿ちひろ,坂井市三国町米ｹ脇4ｰ4ｰ48,0776-82-6766,5,23,36.225704,136.132591
旅館・ホテル,ホクコンサンセットヴィラ,坂井市三国町米ｹ脇4ｰ8ｰ50,0776-82-1073,5,60,36.225507,136.133866
旅館・ホテル,民宿前田,坂井市三国町梶32ｰ76ｰ2,0776-81-3642,8,34,36.251596,136.152527
旅館・ホテル,民宿冨士,坂井市三国町梶38字37号5番地,0776-81-4191,7,23,36.253285,136.148158
旅館・ホテル,はれや旅館,坂井市三国町梶26-45-1,0776-60-1808,15,118,36.249227,136.157805
旅館・ホテル,ペンションながや,坂井市三国町安島15ｰ78,0776-82-3006,13,61,36.243047,136.133046
旅館・ホテル,内湯の宿おおとく,坂井市三国町安島24ｰ51ｰ2,0776-82-6668,11,73,36.248527,136.124508
旅館・ホテル,ペンションシャロット,坂井市三国町崎34字尾畑7ｰ8ｰ9,0776-82-5481,7,14,36.249408,136.147525
旅館・ホテル,料理民宿いそや,坂井市三国町崎33ｰ2ｰ2,0776-81-2030,8,41,36.251988,136.147169
旅館・ホテル,休暇村越前三国,坂井市三国町崎15字45,0776-82-7400,52,470,36.249005,136.141506
旅館・ホテル,杉田旅館,坂井市春江町為国幸1ｰ5,0776-51-0518,6,24,36.128584,136.227521
旅館・ホテル,ビジネスホテルニュ－オサムラ,鯖江市東鯖江町4丁目3ｰ8,0778-53-1010,36,36,35.947216,136.197234
旅館・ホテル,ホテルスイートメモリー,鯖江市糺町11ｰ1,0778-51-1810,11,22,35.971203,136.168877
旅館・ホテル,マスヤ旅館,鯖江市鳥羽町128ｰ5ｰ1,0778-52-3408,6,13,35.974062,136.200458
旅館・ホテル,さばえ神明旅館,鯖江市神明町1丁目3ｰ2,0778-51-1172,7,14,35.970081,136.18142
旅館・ホテル,神明苑,鯖江市神明町2丁目8番4号,0778-52-5165,17,128,35.972553,136.182584
旅館・ホテル,ホテルアルファーワン鯖江,鯖江市旭町1丁目1ｰ1,0778-53-0707,171,180,35.943724,136.188143
旅館・ホテル,サバエシティ－ホテル,鯖江市桜町3丁目3ｰ3,0778-53-1122,66,76,35.947309,136.181271
旅館・ホテル,ホテルＭＩＯコットン,鯖江市横越町30字金町7,0778-53-0490,48,96,35.950137,136.2008
旅館・ホテル,ホテルインターナショナル,鯖江市横越町31字月田24ｰ1,0778-52-5230,23,46,35.949823,136.202458
旅館・ホテル,ホテルコンチネンタル,鯖江市横越町30ｰ1ｰ1,0778-54-9191,30,224,35.949068,136.200494
旅館・ホテル,ホテルルートイン鯖江,鯖江市下河端町14ｰ1ｰ1,0778-51-5002,159,360,35.966274,136.188817
旅館・ホテル,鯖江第一ホテル,鯖江市新横江1丁目116,0778-54-0111,107,110,35.942338,136.193873
旅館・ホテル,Ｋ＆Ｎサンドーム福井ホテル,鯖江市宮前2丁目1801,0778-51-3344,51,270,35.932337,136.186838
旅館・ホテル,ビジネスホテルおさむら,鯖江市日の出町2ｰ1,0778-52-0636,20,24,35.942802,136.188176
旅館・ホテル,ＨＯＴＥＬＢｅｌＡｇｅ（ホテルベルアージュ）,鯖江市有定町1丁目6ｰ8,0778-51-4870,7,23,35.94416,136.177444
旅館・ホテル,ファンシーホテルザザビ,鯖江市有定町1丁目6ｰ8,0778-51-4870,8,24,35.94416,136.177444
旅館・ホテル,福井県立鯖江青年の家,鯖江市上野田町19ｰ1,0778-62-1214,16,88,35.937821,136.147895
旅館・ホテル,鯖江市農林業体験実習館（ラポーゼかわだ）,鯖江市上河内町19‐37‐2,0778-65-0012,16,183,35.948063,136.300009
旅館・ホテル,和太屋,三方郡美浜町和田7ｰ12,0770-32-1565,5,13,35.617821,135.941821
旅館・ホテル,ビジネスホテル西郷,三方郡美浜町松原36ｰ5ｰ1,0770-32-6000,32,64,35.604234,135.933821
旅館・ホテル,なかよし家,三方郡美浜町松原13ｰ59,0770-32-1466,8,25,35.608661,135.92766
旅館・ホテル,はまもと旅館,三方郡美浜町松原11ｰ65,0770-32-1763,7,19,35.609703,135.927502
旅館・ホテル,レインボーマリン幸朋庵,三方郡美浜町久々子古屋敷1ｰ15,0770-32-1412,11,66,35.605851,135.915942
旅館・ホテル,一休,三方郡美浜町久々子18ｰ8ｰ15,0770-32-0152,5,37,35.608853,135.914514
旅館・ホテル,海のホテルひろせ,三方郡美浜町久々子2ｰ5ｰ2,0770-32-0001,37,313,35.610125,135.911648
旅館・ホテル,魚政,三方郡美浜町久々子3ｰ11,0770-32-0727,7,22,35.608831,135.913773
旅館・ホテル,中村屋,三方郡美浜町久々子58ｰ15ｰ11,0770-32-0143,6,26,35.607839,135.92153
旅館・ホテル,美船荘,三方郡美浜町久々子20ｰ14,0770-32-0142,11,33,35.607134,135.91537
旅館・ホテル,浪路旅館,三方郡美浜町久々子47ｰ38,0770-32-0250,29,139,35.608726,135.917533
旅館・ホテル,かやの旅館,三方郡美浜町早瀬13ｰ6,0770-32-2014,6,16,35.619071,135.906479
旅館・ホテル,きたむら旅館,三方郡美浜町早瀬11ｰ50,0770-32-0414,6,15,35.615691,135.906262
旅館・ホテル,ザグランリゾート三方五湖,三方郡美浜町早瀬3号字横道,0770-32-1516,22,117,35.611994,135.908484
旅館・ホテル,たかはま旅館,三方郡美浜町早瀬12ｰ49,,7,20,35.616993,135.906976
旅館・ホテル,たなべ旅館,三方郡美浜町早瀬13ｰ89ｰ1,0770-32-1074,9,38,35.617891,135.906734
旅館・ホテル,ふじま屋,三方郡美浜町早瀬12ｰ81,0770-32-0421,6,18,35.617299,135.907092
旅館・ホテル,まきさん,三方郡美浜町早瀬7大久路5ｰ1,0770-32-1072,6,22,35.613369,135.908142
旅館・ホテル,吉田旅館,三方郡美浜町早瀬12ｰ51ｰ1,0770-32-0332,6,34,35.61671,135.906931
旅館・ホテル,任天堂㈱美浜寮,三方郡美浜町早瀬6号松原5ｰ1,0770-35-5586,9,28,35.61313,135.908942
旅館・ホテル,㈲美浜釣舟センター,三方郡美浜町早瀬3ｰ26ｰ2,0770-32-1308,6,25,35.611775,135.907887
旅館・ホテル,みやぎ,三方郡美浜町日向47ｰ40,,6,,35.612272,135.89123
旅館・ホテル,みやぎ旅館,三方郡美浜町日向3ｰ8,0770-32-0336,9,29,35.613183,135.896343
旅館・ホテル,やまじん,三方郡美浜町日向13ｰ7ｰ2,0770-32-1052,7,23,35.604415,135.895649
旅館・ホテル,旭屋,三方郡美浜町日向10ｰ13,,8,30,35.60985,135.892691
旅館・ホテル,漁師の宿五郎左衛門,三方郡美浜町日向10ｰ16,0770-32-0471,8,33,35.60975,135.892933
旅館・ホテル,漁場の宿はっとり,三方郡美浜町日向10ｰ31,0770-32-0617,11,46,35.609403,135.893694
旅館・ホテル,嵯峨,三方郡美浜町日向61ｰ1ｰ155,0770-45-1133,4,21,35.600768,135.894094
旅館・ホテル,清兵衛,三方郡美浜町日向47ｰ42,0770-32-5492,5,15,35.612116,135.891091
旅館・ホテル,太郎門,三方郡美浜町日向10ｰ54,0770-32-1048,6,19,35.609572,135.893727
旅館・ホテル,美芳屋,三方郡美浜町日向67ｰ1ｰ95,0770-32-0435,5,22,35.611561,135.894502
旅館・ホテル,旅館またべゑ,三方郡美浜町日向47ｰ51,0770-32-0461,7,22,35.611905,135.891069
旅館・ホテル,旅館金森,三方郡美浜町日向10ｰ65,0770-32-0549,10,39,35.607906,135.895069
旅館・ホテル,旅館入舟,三方郡美浜町日向47ｰ46,0770-32-1040,5,17,35.612164,135.891355
旅館・ホテル,かつみ屋,三方郡美浜町丹生49ｰ2,0770-39-1045,19,60,35.712456,135.970273
旅館・ホテル,しんや,三方郡美浜町丹生37ｰ5,0770-39-1163,5,13,35.7122,135.971562
旅館・ホテル,はたや旅館,三方郡美浜町丹生37ｰ3,0770-39-1358,13,37,35.71242,135.971776
旅館・ホテル,はまよし,三方郡美浜町丹生37ｰ50ｰ3,0770-39-1123,5,16,35.711256,135.971831
旅館・ホテル,みつきや旅館,三方郡美浜町丹生37ｰ48,0770-39-1389,8,23,35.711201,135.972014
旅館・ホテル,みなとや,三方郡美浜町丹生28ｰ9ｰ1,0770-39-1156,12,29,35.710545,135.972376
旅館・ホテル,やませ,三方郡美浜町丹生27ｰ28ｰ2,0770-39-1623,12,41,35.709346,135.97272
旅館・ホテル,やまや,三方郡美浜町丹生49ｰ1,,9,25,35.712381,135.970417
旅館・ホテル,よしの,三方郡美浜町丹生48ｰ39,0770-39-1666,5,10,35.712625,135.971281
旅館・ホテル,宇野旅館,三方郡美浜町丹生50ｰ37,0770-39-1620,10,31,35.710967,135.965637
旅館・ホテル,新谷旅館,三方郡美浜町丹生47ｰ10,0770-39-1137,19,28,35.711453,135.971984
旅館・ホテル,谷口旅館,三方郡美浜町丹生48ｰ27,0770-39-1056,10,33,35.712631,135.972192
旅館・ホテル,中橋屋旅館,三方郡美浜町丹生36ｰ28,0770-39-1359,17,39,35.711015,135.972742
旅館・ホテル,中村屋,三方郡美浜町丹生48ｰ46,0770-39-1252,17,67,35.712731,135.970745
旅館・ホテル,仲塚旅館,三方郡美浜町丹生50東奥浦16ｰ1,0770-39-1412,4,26,35.711598,135.966515
旅館・ホテル,道保旅館,三方郡美浜町丹生48ｰ41,0770-39-1641,16,49,35.712462,135.971064
旅館・ホテル,尾崎旅館,三方郡美浜町丹生48ｰ17,,7,21,35.712875,135.971726
旅館・ホテル,旅館おざき,三方郡美浜町丹生48ｰ17,0770-39-1126,5,14,35.712875,135.971726
旅館・ホテル,海浜館,三方郡美浜町竹波19ｰ17,0770-39-1138,6,26,35.695311,135.97689
旅館・ホテル,庄屋旅館,三方郡美浜町竹波19ｰ40,0770-39-1308,21,68,35.695311,135.97689
旅館・ホテル,昭和館,三方郡美浜町竹波13ｰ9,0770-39-1159,17,43,35.695658,135.977715
旅館・ホテル,孫治郎屋,三方郡美浜町竹波19ｰ32,,6,17,35.69545,135.976867
旅館・ホテル,大衆館,三方郡美浜町竹波17ｰ32,0770-39-1119,8,25,35.694498,135.978181
旅館・ホテル,沢田屋,三方郡美浜町竹波19ｰ35,0770-39-1155,15,44,35.695311,135.97689
旅館・ホテル,竹内旅館,三方郡美浜町竹波19ｰ14,0770-39-1822,5,18,35.695872,135.976848
旅館・ホテル,田中旅館,三方郡美浜町竹波19ｰ32,,7,21,35.69545,135.976867
旅館・ホテル,波止屋旅館,三方郡美浜町竹波19ｰ49,0770-39-1135,5,16,35.694717,135.977253
旅館・ホテル,畑中屋,三方郡美浜町竹波17ｰ4ｰ2,0770-39-1136,12,24,35.695383,135.977695
旅館・ホテル,北中,三方郡美浜町竹波19ｰ38,0770-38-1453,7,21,35.695412,135.977118
旅館・ホテル,旅館しずか,三方郡美浜町竹波19ｰ3,0770-39-1552,9,30,35.696078,135.977028
旅館・ホテル,旅館やまもと,三方郡美浜町竹波14ｰ1,,8,28,35.69495,135.978723
旅館・ホテル,旅館一力,三方郡美浜町竹波19ｰ45,0770-39ｰ1708,9,24,35.694859,135.97664
旅館・ホテル,旅館若狭屋,三方郡美浜町竹波17ｰ27,0770-39-1129,10,30,35.69447,135.977712
旅館・ホテル,旅館畑中屋,三方郡美浜町竹波17ｰ4ｰ2,0770-39-1136,16,55,35.695383,135.977695
旅館・ホテル,Ｄ－ＢＲＯＷＮ旅館竹本,三方郡美浜町菅浜90ｰ2ｰ3,0770-37-2063,10,39,35.656497,135.970114
旅館・ホテル,おけの,三方郡美浜町菅浜110ｰ52ｰ5,0770-38-1709,14,44,35.652936,135.975936
旅館・ホテル,さくべ旅館,三方郡美浜町菅浜100ｰ15,0770-38-1232,14,43,35.654939,135.975117
旅館・ホテル,すがはま荘,三方郡美浜町菅浜110ｰ51,,7,21,35.653644,135.975617
旅館・ホテル,たけだ旅館,三方郡美浜町菅浜92ｰ29,0770-38-1612,8,21,35.655366,135.975178
旅館・ホテル,たなべ旅館,三方郡美浜町菅浜110ｰ48ｰ1,0770-38-1432,13,33,35.653175,135.975817
旅館・ホテル,なしだ旅館,三方郡美浜町菅浜100ｰ29,0770-37-2754,8,25,35.655142,135.976183
旅館・ホテル,やまもと旅館,三方郡美浜町菅浜93ｰ16ｰ1,0770-38-1510,11,32,35.656972,135.9743
旅館・ホテル,岩本旅館,三方郡美浜町菅浜100ｰ31,,6,18,35.655269,135.975544
旅館・ホテル,吉本,三方郡美浜町菅浜89ｰ4,0770-38-1507,8,27,35.656666,135.968056
旅館・ホテル,吉本旅館別館,三方郡美浜町菅浜90ｰ3ｰ1,0770-38-1711,6,18,35.656838,135.9703
旅館・ホテル,高田屋,三方郡美浜町菅浜93ｰ19,,5,14,35.656802,135.974092
旅館・ホテル,孫市,三方郡美浜町菅浜91ｰ18,0770-37-2701,7,17,35.656369,135.973483
旅館・ホテル,長谷川,三方郡美浜町菅浜89ｰ5,0770-38-1454,7,25,35.656733,135.968226
旅館・ホテル,梅津旅館,三方郡美浜町菅浜99ｰ10,0770-38-1055,19,65,35.65628,135.975761
旅館・ホテル,ホテルメイプル,三方郡美浜町佐田18ｰ5ｰ1,0770-38-1212,16,133,35.628898,135.999639
旅館・ホテル,ホテルメイプルキッス,"三方郡美浜町佐田18号4ｰ1,4ｰ2,5ｰ1",0770-38-1212,16,112,35.628898,135.999639
旅館・ホテル,しみず,三方郡美浜町坂尻14ｰ9,0770-38-1246,7,21,35.621599,135.961535
旅館・ホテル,五郎兵衛,三方郡美浜町坂尻16ｰ5,0770-37-2615,5,14,35.621776,135.962371
旅館・ホテル,湖畔荘,三方上中郡若狭町気山64,0770-45-2060,9,44,35.589073,135.896041
旅館・ホテル,虹岳島温泉虹岳島,三方上中郡若狭町気山334ｰ1ｰ8,0770-45-0255,17,114,35.589192,135.893938
旅館・ホテル,吉村館,三方上中郡若狭町三方25ｰ29,0770-45-0004,7,23,35.559459,135.90967
旅館・ホテル,天然温泉岡三屋彩かさね,三方上中郡若狭町生倉18ｰ19ｰ2,0770-45-3377,8,56,35.562648,135.900248
旅館・ホテル,川穂,三方上中郡若狭町井崎42ｰ7,,8,29,35.515513,135.896577
旅館・ホテル,おとぼけビーバー三方店,三方上中郡若狭町白屋57ｰ3ｰ1,0770-45-1812,17,107,35.485258,135.901577
旅館・ホテル,福井県立三方青年の家,三方上中郡若狭町鳥浜122号新開田27番1,0770-45-0229,14,168,35.560037,135.894527
旅館・ホテル,三鶴,三方上中郡若狭町鳥浜山川北25ｰ41,0770-45-0894,7,22,35.554676,135.907576
旅館・ホテル,㈲徳右エ門,三方上中郡若狭町鳥浜44ｰ18,0770-45-0039,6,19,35.555243,135.903312
旅館・ホテル,あづまや,三方上中郡若狭町常神1ｰ75,0770-47-1615,8,27,35.637388,135.821203
旅館・ホテル,そてつや旅館,三方上中郡若狭町常神1ｰ60,0770-47-1616,10,32,35.636968,135.82022
旅館・ホテル,ひこだい,三方上中郡若狭町常神1ｰ17,0770-46-1094,5,13,35.637163,135.82075
旅館・ホテル,まつむら,三方上中郡若狭町常神1ｰ51,0770-46-1494,8,24,35.637163,135.82075
旅館・ホテル,メインマスト,三方上中郡若狭町常神9ｰ12ｰ1,0770-47-1078,8,35,35.630752,135.833219
旅館・ホテル,やまと,三方上中郡若狭町常神2ｰ4,0770-47-1617,5,17,35.637787,135.821698
旅館・ホテル,魚集山下屋,三方上中郡若狭町常神1ｰ76,0770-47ｰ1103,6,28,35.637485,135.821395
旅館・ホテル,市エ門,三方上中郡若狭町常神1ｰ6,0770-47-1345,15,44,35.636352,135.820381
旅館・ホテル,小西屋別館,三方上中郡若狭町常神大久保5ｰ2ｰ1,0770-47-1117,9,32,35.635471,135.828444
旅館・ホテル,長松,三方上中郡若狭町常神1ｰ49,0770-46-1699,9,29,35.637163,135.82075
旅館・ホテル,別館杉本,三方上中郡若狭町常神1ｰ40,0770-47-1510,10,41,35.637213,135.819987
旅館・ホテル,別館長松,三方上中郡若狭町常神1ｰ53,0770-46-1177,5,18,35.637446,135.820178
旅館・ホテル,与五郎,三方上中郡若狭町常神1ｰ34,0770-47-1508,7,23,35.636954,135.820048
旅館・ホテル,旅館なかむら,三方上中郡若狭町常神1ｰ73,0770-47-1105,14,65,35.63721,135.821056
旅館・ホテル,旅館橋本屋,三方上中郡若狭町常神1ｰ38,0770-47-1106,10,32,35.637163,135.820128
旅館・ホテル,旅館小西屋,三方上中郡若狭町常神1ｰ33,,6,28,35.636885,135.820062
旅館・ホテル,ゑびす屋,三方上中郡若狭町神子10ｰ18,0770-47-1301,11,40,35.617393,135.841423
旅館・ホテル,久介,三方上中郡若狭町神子,0770-47-1416,8,25,35.622245,135.838593
旅館・ホテル,幸乃家（本館）,三方上中郡若狭町神子4ｰ3,0770-46-1565,6,18,35.622723,135.838379
旅館・ホテル,大観,三方上中郡若狭町神子8ｰ4,0770-47-1632,10,30,35.622246,135.838593
旅館・ホテル,池の屋旅館,三方上中郡若狭町神子6ｰ12,0770-47-1612,12,37,35.62204,135.839229
旅館・ホテル,藤の家,三方上中郡若狭町神子3ｰ34,0770-46-1670,9,32,35.623476,135.837743
旅館・ホテル,浜屋,三方上中郡若狭町神子4ｰ19,0770-47-1611,5,12,35.622098,135.838624
旅館・ホテル,望海幸楽,三方上中郡若狭町神子3ｰ11ｰ1,0770-47-1316,11,52,35.623262,135.837746
旅館・ホテル,旅館はちべ,三方上中郡若狭町神子4ｰ9,0770-47-1503,9,30,35.622429,135.838207
旅館・ホテル,旅館細川,三方上中郡若狭町神子4ｰ4,0770-47-1505,7,22,35.62272,135.838274
旅館・ホテル,旅館寺本,三方上中郡若狭町神子4ｰ12,0770-47-1315,10,45,35.622467,135.838387
旅館・ホテル,旅館竹中,三方上中郡若狭町神子3ｰ15,0770-47-1402,7,21,35.623476,135.837743
旅館・ホテル,旅館潮屋,三方上中郡若狭町神子4ｰ40,0770-47-1305,5,23,35.621448,135.838849
旅館・ホテル,松岡旅館,三方上中郡若狭町神子6ｰ20,0770-47-1112,7,29,35.621862,135.83899
旅館・ホテル,若狭町みさき漁村体験施設,三方上中郡若狭町神子14ｰ1,0770-47-1110,6,64,35.616402,135.83961
旅館・ホテル,とね旅館,三方上中郡若狭町小川1ｰ9,0770-47-1050,5,23,35.606153,135.845267
旅館・ホテル,はまち旅館,三方上中郡若狭町小川1ｰ10,0770-47-1339,7,34,35.606058,135.845148
旅館・ホテル,まるや,三方上中郡若狭町小川2ｰ5,0770-47-1054,9,28,35.606506,135.845309
旅館・ホテル,みさき旅館,三方上中郡若狭町小川4ｰ23,0770-47-1057,5,15,35.607056,135.844606
旅館・ホテル,ものべ,三方上中郡若狭町小川4ｰ5,0770-47-1358,10,30,35.607281,135.844878
旅館・ホテル,翁館,三方上中郡若狭町小川8ｰ22,0770-47-1321,8,27,35.607622,135.843978
旅館・ホテル,喜楽亭,三方上中郡若狭町小川5ｰ2,0770-47-1353,9,42,35.607725,135.84452
旅館・ホテル,江むら,三方上中郡若狭町小川2ｰ31,0770-47-1520,7,24,35.606378,135.844853
旅館・ホテル,江むら,三方上中郡若狭町小川2ｰ4,0770-47-1520,7,22,35.606558,135.845442
旅館・ホテル,小川家,三方上中郡若狭町小川4ｰ29,0770-47-1355,6,21,35.607244,135.844242
旅館・ホテル,徳兵衛旅館,三方上中郡若狭町小川4ｰ38,0770-47-1059,16,52,35.607078,135.844373
旅館・ホテル,南波屋,三方上中郡若狭町小川4ｰ25,0770-46-1157,13,46,35.607458,135.844278
旅館・ホテル,入船,三方上中郡若狭町小川4ｰ24,,6,20,35.607319,135.844392
旅館・ホテル,白帆旅館,三方上中郡若狭町小川2ｰ14,0770-47-1253,7,18,35.606919,135.845078
旅館・ホテル,冨士旅館,三方上中郡若狭町小川4ｰ2,0770-47-1259,5,19,35.607239,135.845134
旅館・ホテル,旅館あさひ屋,三方上中郡若狭町小川8ｰ26,0770-47-1255,5,22,35.607467,135.84359
旅館・ホテル,きよしや,三方上中郡若狭町遊子11ｰ10,0770-47-1725,11,41,35.603081,135.855119
旅館・ホテル,こまつや,三方上中郡若狭町遊子7号手之平16,0770-46-1175,9,33,35.603167,135.856725
旅館・ホテル,だいらや,三方上中郡若狭町遊子5ｰ28,0770-47-1501,7,33,35.601343,135.855808
旅館・ホテル,だいらや旅館別館,三方上中郡若狭町遊子5ｰ30ｰ1,0770-47-1501,6,36,35.602004,135.855375
旅館・ホテル,はまと旅館,三方上中郡若狭町遊子10ｰ5,0770-47-1724,9,53,35.60319,135.855694
旅館・ホテル,やまや,三方上中郡若狭町遊子南田5ｰ20,0770-47-1622,9,36,35.601706,135.85533
旅館・ホテル,やろく,三方上中郡若狭町遊子3ｰ4,0770-47-1523,9,27,35.601901,135.857202
旅館・ホテル,昭和館,三方上中郡若狭町遊子2ｰ3,0770-47-1722,22,94,35.601412,135.857463
旅館・ホテル,遊子荘,三方上中郡若狭町遊子7ｰ4,,7,22,35.603192,135.856022
旅館・ホテル,遊子荘,三方上中郡若狭町遊子7ｰ5,0770-46-1521,8,22,35.603192,135.856022
旅館・ホテル,旅館三四郎,三方上中郡若狭町遊子6ｰ21ｰ1,0770-41ｰ1524,12,53,35.602712,135.85575
旅館・ホテル,新谷屋,三方上中郡若狭町塩坂越1ｰ1,,7,32,35.588616,135.858727
旅館・ホテル,大谷旅館,三方上中郡若狭町塩坂越4ｰ7,,7,21,35.588772,135.85803
旅館・ホテル,海香の宿波華楼,三方上中郡若狭町塩坂越3ｰ11,0770-47-1423,6,29,35.588555,135.857741
旅館・ホテル,なが田,三方上中郡若狭町海山52ｰ22,0770-47-1363,14,65,35.59145,135.867113
旅館・ホテル,湖上館パムコ,三方上中郡若狭町海山64ｰ4ｰ1,0770-47-1727,10,46,35.58805,135.86373
旅館・ホテル,若狭町観光ホテル水月花,三方上中郡若狭町海山51ｰ13,0770-47-1234,30,216,35.591033,135.867846
旅館・ホテル,梅花,三方上中郡若狭町海山64ｰ2,0770-46-1684,6,16,35.588186,135.863507
旅館・ホテル,水月湖畔の宿大五郎丸,三方上中郡若狭町海山68ｰ12ｰ2,,7,24,,
旅館・ホテル,あおきや,三方上中郡若狭町世久見5ｰ6ｰ2,0770-46-1558,13,47,35.571907,135.85055
旅館・ホテル,えむら家旅館,三方上中郡若狭町世久見6ｰ20,,9,41,35.571252,135.850308
旅館・ホテル,かわむら,三方上中郡若狭町世久見13ｰ14,0770-46-1537,8,28,35.57101,135.849608
旅館・ホテル,きよや,三方上中郡若狭町世久見(食見)31-8,0770-46-1511,8,32,35.559522,135.839681
旅館・ホテル,シーサイドまつみや,三方上中郡若狭町世久見1ｰ5,0770-46-1451,5,27,35.573382,135.851014
旅館・ホテル,なぎさ館,三方上中郡若狭町世久見5ｰ5,0770-46-1290,10,36,35.571915,135.850342
旅館・ホテル,はまかわ,三方上中郡若狭町世久見5ｰ20,0770-46-1538,13,55,35.571443,135.85007
旅館・ホテル,はまべや,三方上中郡若狭町世久見5ｰ14,0770-46-1557,10,40,35.571665,135.850356
旅館・ホテル,ひさみ,三方上中郡若狭町世久見5ｰ10,0770-46-1539,5,15,35.571685,135.850497
旅館・ホテル,ふじはらや,三方上中郡若狭町世久見13ｰ26,0770-46-1536,12,57,35.570991,135.849947
旅館・ホテル,まごや,三方上中郡若狭町世久見5ｰ4,0770-46-1550,12,47,35.572182,135.850572
旅館・ホテル,まつみや,三方上中郡若狭町世久見6ｰ16,0770-46-1373,5,18,35.571516,135.850647
旅館・ホテル,まつみや,三方上中郡若狭町世久見4ｰ9,0770-46-1373,6,25,35.573038,135.850589
旅館・ホテル,みたにや,三方上中郡若狭町世久見11ｰ1,0770-46-1651,8,39,35.570818,135.850336
旅館・ホテル,みなと屋,三方上中郡若狭町世久見15ｰ17,0770-46-1394,9,26,35.564688,135.843326
旅館・ホテル,よしおかや,三方上中郡若狭町世久見15ｰ10,0770-46-1786,11,47,35.564799,135.842939
旅館・ホテル,わたなべ館,三方上中郡若狭町世久見13ｰ20ｰ1他,0770-46-1553,10,42,35.570605,135.849486
旅館・ホテル,一二三荘,三方上中郡若狭町世久見4ｰ16,0770-46-1881,8,32,35.572302,135.850739
旅館・ホテル,漁師のお宿勇晴,三方上中郡若狭町世久見6ｰ29,0770-46-1654,7,24,35.570813,135.850936
旅館・ホテル,魚美家,三方上中郡若狭町世久見12号下坂3ｰ1,0770-46-1535,13,78,35.570454,135.850139
旅館・ホテル,山文館,三方上中郡若狭町世久見9ｰ4,0770-46-1655,5,17,35.570766,135.850589
旅館・ホテル,若狭の宿きよや,三方上中郡若狭町世久見39号渕ｹ尻11ｰ1,0770-46-1511,7,28,35.561739,135.836715
旅館・ホテル,重田家,三方上中郡若狭町世久見11ｰ2,0770-46-1650,10,35,35.570729,135.850439
旅館・ホテル,松喜,三方上中郡若狭町世久見13ｰ17,0770-46-1559,11,50,35.570879,135.849117
旅館・ホテル,清風荘,三方上中郡若狭町世久見40ｰ3,0770-46-1364,14,96,35.561219,135.834795
旅館・ホテル,浜松旅館,三方上中郡若狭町世久見12ｰ5,,7,27,35.570454,135.850317
旅館・ホテル,浜仁,三方上中郡若狭町世久見4ｰ7,0770-46-1551,8,37,35.572302,135.850739
旅館・ホテル,浜乃家,三方上中郡若狭町世久見13ｰ6,0770-46-1470,13,49,35.571191,135.850003
旅館・ホテル,民宿長谷,三方上中郡若狭町世久見(食見)9-14-1,0770-46-1735,7,18,35.570891,135.850508
旅館・ホテル,民宿長谷,三方上中郡若狭町世久見39ｰ14ｰ1,0770-46-1735,8,35,,
旅館・ホテル,民宿浜正,三方上中郡若狭町世久見4ｰ12,0770-46-1653,5,19,35.572563,135.850553
旅館・ホテル,旅館美舟,三方上中郡若狭町世久見13ｰ30,0770-46-1554,9,36,35.570743,135.850072
旅館・ホテル,庄司旅館,三方上中郡若狭町大鳥羽25ｰ12ｰ1,0770-64-1211,12,57,35.50412,135.866457
旅館・ホテル,ホテル若狭,三方上中郡若狭町末野84ｰ3ｰ1,0770-62-0608,7,39,35.476973,135.888686
旅館・ホテル,えびす荘,三方上中郡若狭町安賀里75ｰ1,0770-62-0531,10,57,35.478634,135.87984
旅館・ホテル,わかさカントリー倶楽部,三方上中郡若狭町新道9ｰ3,0770-62-1515,17,45,35.467091,135.895283
旅館・ホテル,リフレステやまびこ,三方上中郡若狭町河内1号鋸川4ｰ5,0770-62-0256,9,39,35.432966,135.891239
旅館・ホテル,東急ハーヴェストクラブスキージャム勝山,勝山市170字奥山69ｰ7,0779-87-6109,100,846,36.034126,136.529982
旅館・ホテル,プチホテルバースティック,勝山市180字･178字郡原1-20･1-22,0779-88-5888,28,157,36.03429,136.531468
旅館・ホテル,ペンション星の子,勝山市178字郡1番6,0779-87-6000,11,36,36.075404,136.555431
旅館・ホテル,福井医療短期大学法恩寺山荘,勝山市180字郡原1ｰ13,0779-87-6234,7,21,36.03429,136.531468
旅館・ホテル,平尾ペンション,勝山市村岡町滝波19ｰ15ｰ2,0779-89-3300,10,43,36.075462,136.488865
旅館・ホテル,株式会社あまごの宿,勝山市野向町横倉第56号35番地,0779-88-5398,11,42,36.122153,136.507944
旅館・ホテル,ペンションＵＰＯ,勝山市村岡町栃神谷第11号6番地1,0779-87-6722,9,34,36.092316,136.533144
旅館・ホテル,民宿松原旅館,勝山市村岡町寺尾26ｰ28,0779-88-1943,9,26,36.079262,136.512619
旅館・ホテル,横倉鉱泉勝山旅館,勝山市郡町2丁目9ｰ6,0779-88-0299,6,22,36.073332,136.503034
旅館・ホテル,ホテルやなぎ屋,勝山市荒土町新保4ｰ129,0779-89-1000,9,38,36.075576,136.482018
旅館・ホテル,米伊旅館,勝山市本町2丁目3ｰ6,0779-87-0042,8,35,36.059256,136.499823
旅館・ホテル,板甚,勝山市本町2丁目5ｰ14,0779-88-0020,7,35,36.059784,136.498995
旅館・ホテル,勝山市滞在型コンベンション施設勝山ニューホテル,勝山市片瀬町2丁目114番地,0779-88-2110,64,484,36.050099,136.514728
旅館・ホテル,六呂師高原温泉キャンプグランド,勝山市平泉寺町平泉寺230号50番地,0779-88-5789,11,80,36.027578,136.572938
旅館・ホテル,六呂師高原温泉ピクニックガーデン,勝山市平泉寺町平泉寺230池ヶ原50,0779-88-1110,9,36,36.027578,136.572938
旅館・ホテル,ホテルハグハグ,小浜市飯盛15ｰ17ｰ18,0770-52-3300,10,42,35.487099,135.685349
旅館・ホテル,ＨＯＴＥＬクローバー,小浜市飯盛26ｰ24,0770-52-5163,8,18,35.486271,135.679891
旅館・ホテル,お宿「雅の長八」,小浜市加斗5-59-1,,5,11,35.484733,135.675219
旅館・ホテル,レストラン・ホテル若狭マリンプラザ,小浜市岡津44,0770-53-2100,24,105,35.481646,135.656182
旅館・ホテル,ホテルアーバンポート,小浜市小浜白鳥72ｰ1,0770-53-2001,51,152,35.493812,135.737878
旅館・ホテル,四季彩の宿花椿,小浜市小浜白鳥85番地,0770-53-2001,10,92,35.49404,135.738073
旅館・ホテル,ホテル・ナガタ,小浜市小浜香取33,0770-52-0380,12,24,35.491429,135.734518
旅館・ホテル,若狭路の宿さわ,小浜市小浜貴船60,0770-52-0631,10,40,35.492359,135.735384
旅館・ホテル,アプロディ－ル華双寿,小浜市小浜日吉75,0770-53-2020,8,68,35.494631,135.738642
旅館・ホテル,ホテルせくみ屋,小浜市小浜白鬚113番地,0770-52-0020,76,379,35.495884,135.741631
旅館・ホテル,サンホテルやまね,小浜市小浜白鬚55ｰ1,0770-52-1450,32,339,35.496201,135.739873
旅館・ホテル,ビジネスホテル山海,小浜市駅前町15ｰ13,0770-52-7000,16,40,35.49159,135.749369
旅館・ホテル,ビジネスホテルれんが亭,小浜市駅前町9ｰ18,0770-52-1004,16,34,35.493065,135.746661
旅館・ホテル,ビジネスホテル山海別館,小浜市駅前町16ｰ6,0770-52-7050,16,38,35.491371,135.749783
旅館・ホテル,旅館若杉,小浜市駅前町7ｰ16,0770-52-0900,22,89,35.492557,135.746044
旅館・ホテル,ビジネスホテルニューコーヨー,小浜市大手町7ｰ36興養軒ﾋﾞﾙ3F,0770-53-1616,10,47,35.496212,135.745836
旅館・ホテル,若杉末広亭,小浜市大手町8ｰ5,0770-53-0202,21,108,35.497654,135.74598
旅館・ホテル,きざき,小浜市小浜塩竈60,0770-52-0342,14,50,35.497715,135.74172
旅館・ホテル,秦,小浜市田烏36ｰ40,0770-54-3219,7,30,35.536905,135.835029
旅館・ホテル,民宿佐助,小浜市田烏36ｰ47,0770-54-3407,7,24,35.537224,135.835329
旅館・ホテル,浜乃家,小浜市田烏36ｰ56,0770-54-3206,6,27,35.536805,135.835559
旅館・ホテル,岸野金蔵,小浜市矢代4ｰ11,0770-54-3322,6,21,35.526964,135.806495
旅館・ホテル,こまや,小浜市矢代11ｰ15,0770-54-3056,8,30,35.527025,135.806942
旅館・ホテル,橋本荘,小浜市矢代4ｰ44,0770-54-3054,6,21,35.527316,135.806711
旅館・ホテル,山吉屋,小浜市矢代11ｰ2,0770-54-3325,8,32,35.5268,135.807214
旅館・ホテル,かどの,小浜市矢代4ｰ23,0770-54-3051,5,21,35.526964,135.806495
旅館・ホテル,久兵衛,小浜市志積15ｰ6,0770-54-3431,8,33,35.524628,135.799048
旅館・ホテル,上田屋,小浜市志積15ｰ9,0770-54-3427,6,23,35.524355,135.799442
旅館・ホテル,浜岸,小浜市犬熊16ｰ4,0770-54-3359,13,47,35.530163,135.789713
旅館・ホテル,かわち,小浜市犬熊15ｰ1,0770-54-3135,10,42,35.529857,135.789418
旅館・ホテル,西川旅館,小浜市犬熊13ｰ8,0770-54-3130,8,34,35.53021,135.788915
旅館・ホテル,旅館上亟,小浜市犬熊16ｰ13,0770-54-3136,9,43,35.52948,135.789774
旅館・ホテル,千鳥屋,小浜市犬熊16ｰ3,0770-54-3137,7,40,35.530285,135.789549
旅館・ホテル,さいば,小浜市阿納12ｰ73,0770-54-3041,6,33,35.534768,135.785094
旅館・ホテル,彦荘,小浜市阿納9ｰ3,0770-54-3315,5,24,35.535371,135.785446
旅館・ホテル,（五）河原旅館,小浜市阿納11ｰ8,0770-54-3046,13,40,35.534307,135.78536
旅館・ホテル,いそべ,小浜市阿納11ｰ22,0770-54-3314,8,40,35.534146,135.785082
旅館・ホテル,別館まるふじ,小浜市阿納9ｰ12,0770-54-3048,11,40,35.533971,135.782335
旅館・ホテル,ひろた,小浜市阿納9ｰ1,0770-54-3045,15,65,35.535185,135.785502
旅館・ホテル,はまもと,小浜市阿納9ｰ4,0770-54-3043,12,78,35.535601,135.785421
旅館・ホテル,いたや,小浜市阿納10ｰ4,0770-54-3001,14,59,35.534557,135.785532
旅館・ホテル,下亟旅館,"小浜市阿納10ｰ1510ｰ7ｰ1,2",0770-54-3313,11,52,35.534824,135.785324
旅館・ホテル,（は）浜頭,小浜市阿納8ｰ4,0770-54-3047,10,42,35.536965,135.786585
旅館・ホテル,もりした,小浜市阿納12ｰ65,0770-54-3700,15,63,35.534979,135.785052
旅館・ホテル,広田（忠）旅館,"小浜市阿納7ｰ48､8ｰ3,6",0770-54-3310,14,67,35.535482,135.784838
旅館・ホテル,旅館水月,小浜市阿納10ｰ12,0770-54-3312,19,106,35.534885,135.785507
旅館・ホテル,まるいち旅館,小浜市阿納11ｰ12,0770-54-3049,6,23,35.534629,135.785216
旅館・ホテル,民宿中川,小浜市阿納11ｰ18,0770-54-3311,9,38,35.534393,135.785113
旅館・ホテル,仲村,小浜市西小川9ｰ9,0770-52-2807,7,27,35.546941,135.771958
旅館・ホテル,村上,小浜市西小川6ｰ4ｰ1,0770-52-2804,9,45,35.546889,135.772284
旅館・ホテル,中山,小浜市西小川6ｰ2,0770-52-2809,6,22,35.547108,135.772233
旅館・ホテル,中島屋,小浜市西小川9ｰ23,0770-52-2810,7,27,35.546789,135.771525
旅館・ホテル,旅館うらたに,小浜市宇久6ｰ9,0770-52-2853,10,49,35.546311,135.753501
旅館・ホテル,勝栄丸,小浜市仏谷12,0770-52-2848,7,26,35.525529,135.731075
旅館・ホテル,奥城丸,小浜市仏谷12ｰ12,0770-52-2845,5,19,35.525545,135.731189
旅館・ホテル,流星館,大飯郡おおい町名田庄納田終109ｰ6ｰ1,0770-67-3000,20,81,35.39508,135.584756
旅館・ホテル,南川荘,大飯郡おおい町名田庄三重52ｰ18ｰ1,0770-67-2406,7,22,35.406649,135.687344
旅館・ホテル,新佐,大飯郡おおい町名田庄久坂4ｰ10ｰ2,0770-67-2028,9,62,35.399786,135.683692
旅館・ホテル,門野亭,大飯郡おおい町名田庄口坂本31ｰ4ｰ1,0770-67-3007,5,13,35.399527,135.6093
旅館・ホテル,田中旅館,大飯郡おおい町大島52ｰ50,0770-77-0172,5,17,35.530695,135.653539
旅館・ホテル,池上,大飯郡おおい町大島49ｰ47,,5,17,35.53157,135.655
旅館・ホテル,こすえ旅館,大飯郡おおい町大島45ｰ33ｰ1,0770-77-0396,7,25,35.531507,135.657461
旅館・ホテル,宮内旅館,大飯郡おおい町大島130ｰ48ｰ2,0770-77-1735,8,28,35.521779,135.628077
旅館・ホテル,仁生丸渡船,"大飯郡おおい町大島116ｰ53ｰ1,2",0770-77-0193,5,17,35.520968,135.634296
旅館・ホテル,畑新屋,大飯郡おおい町大島57ｰ24,0770-77-0242,5,16,35.529654,135.651176
旅館・ホテル,高本旅館,大飯郡おおい町大島115ｰ66,0770-77-0478,6,18,35.521096,135.634685
旅館・ホテル,大江旅館,大飯郡おおい町大島49号20ｰ1ｰ2､21,0770-77-0409,6,19,35.532351,135.655525
旅館・ホテル,神野旅館,大飯郡おおい町大島91ｰ54ｰ1,0770-77-0279,6,21,35.524188,135.640621
旅館・ホテル,上山旅館,大飯郡おおい町大島56ｰ9,0770-77-0090,5,15,35.52954,135.651642
旅館・ホテル,田中旅館,大飯郡おおい町大島52ｰ50,0770-77-1733,7,26,35.530695,135.653539
旅館・ホテル,まえもと旅館,大飯郡おおい町大島52ｰ22,0770-77-0467,6,18,35.530907,135.653512
旅館・ホテル,旅館もりもと,大飯郡おおい町大島125ｰ24,0770-77-0323,11,24,35.524746,135.625694
旅館・ホテル,宮本旅館,大飯郡おおい町大島28ｰ3,0770-77-0484,5,15,35.530607,135.660169
旅館・ホテル,中西旅館,大飯郡おおい町大島52ｰ49,0770-77-0187,5,17,35.53062,135.653434
旅館・ホテル,庄司旅館,大飯郡おおい町大島57ｰ47,0770-77-0241,5,13,35.529768,135.651659
旅館・ホテル,中谷旅館,大飯郡おおい町大島125ｰ23,0770-77-0098,8,26,35.522279,135.628916
旅館・ホテル,井本旅館,大飯郡おおい町大島瓜添119ｰ26,0770-77-1308,6,20,35.522388,135.630669
旅館・ホテル,小西旅館,大飯郡おおい町大島16,0770-77-1897,6,18,35.521782,135.628838
旅館・ホテル,時田旅館,大飯郡おおい町大島113ｰ65,0770-77-0315,6,19,35.520716,135.635605
旅館・ホテル,大島旅館,大飯郡おおい町大島119ｰ10,0770-77-0321,7,23,35.522388,135.630669
旅館・ホテル,飛龍館,大飯郡おおい町大島45ｰ29,0770-77-1277,6,13,35.531557,135.657178
旅館・ホテル,森屋,大飯郡おおい町大島90ｰ23,0770-77-0834,6,18,35.526101,135.643015
旅館・ホテル,梅田,大飯郡おおい町大島110ｰ42,0770-77-1004,6,18,35.523188,135.639418
旅館・ホテル,寺本旅館,大飯郡おおい町大島55ｰ19,0770-77-2143,5,16,35.530409,135.652031
旅館・ホテル,リゾート旅館常木,大飯郡おおい町大島33ｰ99,0770-77-1521,5,14,35.531026,135.659247
旅館・ホテル,大谷旅館,大飯郡おおい町大島51ｰ22,0770-77-0431,7,22,35.53159,135.654756
旅館・ホテル,藤井旅館,大飯郡おおい町大島28ｰ9,0770-77-0325,10,35,35.53049,135.660425
旅館・ホテル,大谷旅館,大飯郡おおい町大島125ｰ20,0770-77-0635,12,34,35.524618,135.62533
旅館・ホテル,福井旅館,大飯郡おおい町大島115ｰ67ｰ2,0770-77-0459,5,19,35.521252,135.634988
旅館・ホテル,西森旅館,大飯郡おおい町大島116ｰ32,0770-77-0191,10,28,35.521585,135.633666
旅館・ホテル,なとや,大飯郡おおい町大島28ｰ19ｰ1,0770-77-1352,7,29,35.530132,135.661106
旅館・ホテル,下西旅館,大飯郡おおい町大島116ｰ43ｰ3,0770-77-0503,12,36,35.521121,135.633974
旅館・ホテル,こすえ旅館,大飯郡おおい町大島28ｰ6,0770-77-0441,9,23,35.530543,135.660331
旅館・ホテル,大江旅館,大飯郡おおい町大島51ｰ21,0770-77-0409,5,25,35.53184,135.654953
旅館・ホテル,新谷旅館,大飯郡おおい町大島宮留44ｰ12,0770-77-0296,8,24,35.531465,135.657903
旅館・ホテル,澤山旅館,大飯郡おおい町大島121ｰ30,0770-77-1884,11,42,35.522282,135.628444
旅館・ホテル,民宿福島,大飯郡おおい町大島59ｰ8ｰ1,0770-77-0095,18,77,35.528271,135.647943
旅館・ホテル,大道旅館,大飯郡おおい町大島28ｰ2,0770-77-0295,7,21,35.530651,135.660089
旅館・ホテル,宮内旅館,大飯郡おおい町大島113ｰ43,0770-77-0166,10,25,35.520632,135.636646
旅館・ホテル,旅館こうはち,大飯郡おおい町大島91ｰ7,0770-77-0373,6,17,35.523335,135.639485
旅館・ホテル,光野旅館,大飯郡おおい町大島57ｰ15,0770-77-1229,8,25,35.52939,135.65084
旅館・ホテル,旅館はやし,大飯郡おおい町長井37,0770-77-0591,12,45,35.47913,135.636236
旅館・ホテル,ホテルうみんぴあ,大飯郡おおい町成海1ｰ8,0770-77-3700,28,196,35.481582,135.631708
旅館・ホテル,パスタイムインホンゴウ,大飯郡おおい町本郷137ｰ8ｰ1,0770-77-1450,15,69,35.479651,135.617598
旅館・ホテル,花屋,大飯郡おおい町本郷122ｰ18ｰ1,0770-77-0019,6,32,35.479296,135.622576
旅館・ホテル,妙法館,大飯郡おおい町本郷147ｰ1ｰ2,0770-77-0051,8,12,35.482862,135.620209
旅館・ホテル,おかせ旅館,大飯郡おおい町本郷153字上中川1ｰ1,0770-77-0009,17,47,35.482659,135.619259
旅館・ホテル,金丸旅館,大飯郡おおい町本郷144ｰ16ｰ1,0770-77-0083,4,13,35.48286,135.622987
旅館・ホテル,ビジネスホテルリッツＯＨＩ,大飯郡おおい町本郷147,0770-77-1110,15,25,35.482535,135.620257
旅館・ホテル,和楽荘,大飯郡高浜町和田110ｰ20,0770-72-0332,8,32,35.490794,135.572292
旅館・ホテル,旅館いずみ,大飯郡高浜町和田118ｰ15,0770-72-0259,12,44,35.491308,135.577769
旅館・ホテル,かえもん旅館,大飯郡高浜町和田112ｰ16,0770-72-0375,11,35,35.489394,135.575533
旅館・ホテル,まるいち旅館,大飯郡高浜町和田121ｰ3,0770-72-0148,7,24,35.492153,135.576764
旅館・ホテル,嘉左ェ門旅館,大飯郡高浜町和田122ｰ2ｰ1,0770-72-0335,16,59,35.491539,135.577453
旅館・ホテル,㈲まるいち旅館,大飯郡高浜町和田121ｰ21ｰ2,0770-72-0403,25,77,35.492369,135.576175
旅館・ホテル,小松旅館,大飯郡高浜町和田126ｰ35ｰ3,0770-72-0359,6,19,35.493227,135.579094
旅館・ホテル,旅館うらにし,大飯郡高浜町和田134ｰ1ｰ2,0770-72-0971,5,18,35.495197,135.579519
旅館・ホテル,旅館五作荘,大飯郡高浜町和田131ｰ16ｰ1,0770-72-0164,7,23,35.495016,135.579061
旅館・ホテル,又栄旅館別館,大飯郡高浜町和田126ｰ38,0770-72-0601,9,22,35.492744,135.579194
旅館・ホテル,海のみえる宿むらみや,大飯郡高浜町和田121ｰ10,0770-72-0639,11,67,35.492814,135.576797
旅館・ホテル,稚紫奘,大飯郡高浜町和田122ｰ3,0770-72-0411,9,29,35.491603,135.576905
旅館・ホテル,有限会社民宿浜側,大飯郡高浜町和田101ｰ7ｰ4,0770-72-0898,34,73,35.488589,135.57042
旅館・ホテル,吉坂旅館新館,大飯郡高浜町和田111ｰ34ｰ1,0770-72-0368,9,25,35.490142,135.575319
旅館・ホテル,まつ下旅館,大飯郡高浜町和田126ｰ22,0770-72-0348,20,60,35.493325,135.579027
旅館・ホテル,松本,大飯郡高浜町和田127ｰ30ｰ1,0770-72-1238,9,41,35.49355,135.578072
旅館・ホテル,民宿浜側,大飯郡高浜町和田105ｰ9ｰ1,0770-72-0469,13,41,35.489111,135.570503
旅館・ホテル,いしい荘,大飯郡高浜町和田135ｰ3ｰ1,0770-72-0141,8,26,35.494636,135.579594
旅館・ホテル,野瀬助右エ門,大飯郡高浜町鐘寄12ｰ10ｰ1,0770-72-3552,7,20,35.489028,135.531011
旅館・ホテル,太平旅館,大飯郡高浜町畑27ｰ4,0770-72-0711,6,15,35.484811,135.536261
旅館・ホテル,助左エ門,大飯郡高浜町畑15ｰ1,0770-72-0712,7,15,35.48525,135.53618
旅館・ホテル,城山荘,大飯郡高浜町事代6ｰ1ｰ1,0770-72-0357,31,138,35.495085,135.552048
旅館・ホテル,伝治郎,大飯郡高浜町薗部53ｰ33,0770-72-0397,6,22,35.4876,135.560776
旅館・ホテル,善兵衛荘,大飯郡高浜町薗部49ｰ9,0770-72-0610,5,15,35.4876,135.55694
旅館・ホテル,清嵐荘,大飯郡高浜町薗部46ｰ10,0770-72-0643,7,20,35.487331,135.562909
旅館・ホテル,民宿かくたに,大飯郡高浜町薗部54ｰ2,0770-72-1626,12,38,35.487689,135.561537
旅館・ホテル,いわた屋,大飯郡高浜町薗部45ｰ10ｰ3,0770-72-2479,6,26,35.487561,135.563948
旅館・ホテル,ひらやま,大飯郡高浜町薗部51ｰ12,0770-72-0520,9,39,35.487572,135.558359
旅館・ホテル,民宿甚兵衛,大飯郡高浜町薗部53ｰ19,0770-72-0521,7,21,35.488019,135.56109
旅館・ホテル,とき本,大飯郡高浜町薗部50ｰ17,0770-72-1549,8,17,35.48805,135.557101
旅館・ホテル,リゾートインキシモト,大飯郡高浜町薗部61ｰ5,0770-72-0636,13,40,35.488964,135.557806
旅館・ホテル,登喜丘荘,大飯郡高浜町薗部51ｰ4,0770-72-0371,5,15,35.488528,135.558212
旅館・ホテル,与五郎,大飯郡高浜町薗部51ｰ16,0770-72-0458,6,18,35.488105,135.558301
旅館・ホテル,民宿さるはし,大飯郡高浜町薗部52ｰ2,0770-72-1516,5,18,35.488455,135.559159
旅館・ホテル,やまぐち,大飯郡高浜町薗部62ｰ8ｰ1,0770-72-1435,5,16,35.488978,135.557548
旅館・ホテル,はまや旅館,大飯郡高浜町薗部61ｰ17,0770-72-0516,5,20,35.488828,135.558884
旅館・ホテル,民宿紋助,大飯郡高浜町薗部61ｰ7,0770-72-1636,5,15,35.488886,135.557981
旅館・ホテル,良美旅館,大飯郡高浜町薗部52ｰ10,0770-72-0384,9,34,35.488164,135.559587
旅館・ホテル,澤田権平,大飯郡高浜町薗部53ｰ36,0770-72-0626,10,32,35.487822,135.561078
旅館・ホテル,登喜丘荘,大飯郡高浜町薗部51ｰ4,0770-72-0371,6,13,35.488528,135.558212
旅館・ホテル,ホテルウェーブ,大飯郡高浜町宮崎75字穴田,0770-72-4850,59,133,35.488511,135.548646
旅館・ホテル,磯の屋,大飯郡高浜町宮崎43ｰ41,0770-72-0008,22,77,35.48965,135.554018
旅館・ホテル,宮崎旅館,大飯郡高浜町宮崎87ｰ15ｰ9,0770-72-0618,9,36,35.488269,135.547251
旅館・ホテル,ビジネス旅館美樹,大飯郡高浜町宮崎77字西丁田13ｰ1､14ｰ1,0770-72-3247,6,17,35.487155,135.548149
旅館・ホテル,なかがわ,大飯郡高浜町宮崎69ｰ1,0770-72-0635,9,49,35.489216,135.553418
旅館・ホテル,高浜のお宿鼓松,大飯郡高浜町宮崎43ｰ27,0770-72-1454,22,81,35.489058,135.55454
旅館・ホテル,扇屋旅館,大飯郡高浜町宮崎41ｰ23,0770-72-0052,20,128,35.490436,135.555432
旅館・ホテル,えがみ,大飯郡高浜町宮崎38ｰ13,0770-72-0536,5,22,35.487972,135.556065
旅館・ホテル,浅田旅館,大飯郡高浜町宮崎38ｰ4,0770-72-1637,5,23,35.4881,135.556329
旅館・ホテル,いしづか,大飯郡高浜町宮崎38ｰ11ｰ3,0770-72-0474,7,21,35.487925,135.55617
旅館・ホテル,旅館但馬屋,大飯郡高浜町宮崎43ｰ42,0770-72-0221,16,51,35.489802,135.554051
旅館・ホテル,旅の宿美樹,大飯郡高浜町宮崎77ｰ13ｰ1･14ｰ1,0770-72-3247,5,15,35.487308,135.548585
旅館・ホテル,旅館おき田,大飯郡高浜町宮崎41ｰ23ｰ5,0770-72-0217,9,43,35.490236,135.555943
旅館・ホテル,セレマ海の家,大飯郡高浜町立石,0770-72-1708,14,84,35.488522,135.539427
旅館・ホテル,一瀬荘,大飯郡高浜町立石16ｰ13,0770-72-0531,6,18,35.488419,135.541699
旅館・ホテル,荒木荘,大飯郡高浜町立石19ｰ8ｰ1,0770-72-1358,6,19,35.488053,135.541063
旅館・ホテル,保利旅館,大飯郡高浜町若宮4ｰ51,0770-72-0278,8,23,35.491255,135.54519
旅館・ホテル,菊水旅館,大飯郡高浜町若宮4ｰ43,0770-72-3553,11,43,35.4918,135.545324
旅館・ホテル,由幸,大飯郡高浜町日引25ｰ7,0770-76-1307,6,17,35.540813,135.473118
旅館・ホテル,潮富荘,大飯郡高浜町日引5ｰ3,0770-76-1328,9,36,35.542204,135.473393
旅館・ホテル,マス屋,大飯郡高浜町音海36ｰ37,0770-72-8238,9,28,35.536059,135.512011
旅館・ホテル,海彩料理こだま,大飯郡高浜町音海32ｰ19ｰ1,0770-76-1234,6,35,35.537114,135.510286
旅館・ホテル,宮茂,大飯郡高浜町小黒飯53ｰ8,0770-72-1155,10,30,35.51264,135.50816
旅館・ホテル,神徳旅館,大飯郡高浜町神野浦8ｰ14,0770-76-1838,5,16,35.523038,135.492053
旅館・ホテル,旅館石橋,大飯郡高浜町中山15ｰ9ｰ8,0770-72-3234,7,20,35.492673,135.509545
旅館・ホテル,「田中屋」旅館,大飯郡高浜町中山15ｰ9ｰ1,0770-72-4159,11,35,35.492731,135.509192
旅館・ホテル,山口旅館,大飯郡高浜町西三松2ｰ7ｰ1,0770-72-3325,9,43,35.49633,135.512842
旅館・ホテル,旅館かわい,大飯郡高浜町西三松2ｰ6ｰ2,0770-72-4504,8,28,35.496175,135.512684
旅館・ホテル,池本旅館,大飯郡高浜町西三松13ｰ48ｰ1,0770-72-4462,6,17,35.492995,135.510978
旅館・ホテル,旅館おくもと,大飯郡高浜町西三松3ｰ27,0770-72-2554,18,65,35.498153,135.512678
旅館・ホテル,寺田旅館,大飯郡高浜町西三松12ｰ32ｰ4,0770-72-4459,5,16,35.493736,135.512731
旅館・ホテル,旅館やまもと,大飯郡高浜町西三松2ｰ21,0770-72-0288,9,29,35.497116,135.513367
旅館・ホテル,旅館あさお,大飯郡高浜町西三松3ｰ25,0770-72-3264,10,49,35.498219,135.512317
旅館・ホテル,旅館川ぐち,大飯郡高浜町西三松2ｰ29,0770-72-3263,15,44,35.497019,135.513453
旅館・ホテル,民宿たなか,大飯郡高浜町西三松2ｰ1,0770-72-4476,6,16,35.496697,135.513775
旅館・ホテル,山悦旅館,大飯郡高浜町西三松7ｰ5ｰ1,0770-72-1344,10,31,35.496414,135.512275
旅館・ホテル,田中旅館,大飯郡高浜町西三松8ｰ9ｰ2,0770-72-0676,10,34,35.496803,135.511973
旅館・ホテル,ＹｏｕｒＲｅｓｏｒｔ光泉,大飯郡高浜町西三松2ｰ1,0770-72-4476,11,33,35.496697,135.513775
旅館・ホテル,ペンションくらはし,大飯郡高浜町西三松13ｰ58ｰ1,0770-72-1500,9,19,35.492159,135.512067
旅館・ホテル,旅館大谷,大飯郡高浜町西三松1ｰ1ｰ4,0770-72-0401,24,60,35.496667,135.514197
旅館・ホテル,旅館かも吉,大飯郡高浜町西三松13ｰ51,0770-72-3021,16,47,35.493248,135.510345
旅館・ホテル,旅館やまおか,大飯郡高浜町西三松3ｰ29ｰ2,0770-72-3087,8,22,35.498422,135.512625
旅館・ホテル,寺田旅館,大飯郡高浜町西三松12ｰ32ｰ5,0770-72-4459,5,12,35.49397,135.512703
旅館・ホテル,石橋旅館別館,大飯郡高浜町西三松11ｰ26ｰ1,0770-72-3436,15,30,35.495614,135.512564
旅館・ホテル,石橋旅館,大飯郡高浜町西三松2ｰ67ｰ25,0770-72-3436,9,32,35.496683,135.512915
旅館・ホテル,旅館大谷別館,大飯郡高浜町西三松2ｰ2,0770-72-0401,7,26,35.496508,135.513503
旅館・ホテル,山崎屋,大飯郡高浜町東三松5ｰ14,0770-72-0424,9,37,35.491467,135.524336
旅館・ホテル,ふじや旅館,大飯郡高浜町東三松5ｰ8,0770-72-0914,5,18,35.4913,135.523317
旅館・ホテル,北野丹源堂,大飯郡高浜町東三松5ｰ13ｰ2,0770-72-1596,16,51,35.49155,135.524105
旅館・ホテル,竹中屋,大飯郡高浜町東三松17ｰ29,0770-72-0562,5,16,35.492994,135.519128
旅館・ホテル,萩の家,大飯郡高浜町東三松17ｰ28,0770-72-1741,6,20,35.492986,135.518989
旅館・ホテル,吉田屋,大飯郡高浜町東三松5ｰ59,0770-72-0326,6,23,35.491036,135.525444
旅館・ホテル,阿さひ旅館,大野市錦町5番12号,0779-66-2075,8,51,35.986009,136.493071
旅館・ホテル,ＣＩＴＹＨＯＴＥＬサンレア２１,大野市月美町6ｰ13,0779-66-1811,29,163,35.986199,136.499559
旅館・ホテル,㈱俵屋,大野市日吉町1ｰ1,0779-66-3807,7,43,35.981677,136.490804
旅館・ホテル,中島屋,大野市日吉町2ｰ3,0779-66-2472,5,25,35.982307,136.491088
旅館・ホテル,にしき,大野市日吉町5ｰ13,0779-65-2275,5,18,35.983015,136.492671
旅館・ホテル,弥生旅館,大野市元町10ｰ19,0779-66-2860,6,21,35.985057,136.491726
旅館・ホテル,美登里旅館,大野市元町13ｰ3,0779-65-2279,7,25,35.984318,136.49196
旅館・ホテル,旅館やまと,大野市大和町4ｰ1,0779-65-1863,5,17,35.983849,136.495165
旅館・ホテル,こし路荘旅館,大野市大和町4ｰ23,0779-66-0012,7,24,35.983763,136.495409
旅館・ホテル,ふじや,大野市明倫町6ｰ18,0779-66-2259,8,30,35.98376,136.488852
旅館・ホテル,三浦屋,大野市明倫町11ｰ13,0779-66-2505,6,43,35.983824,136.490976
旅館・ホテル,扇屋,大野市泉町6ｰ10,0779-65-5858,20,186,35.983643,136.485552
旅館・ホテル,旅館大清水,大野市泉町4ｰ15,0779-65-2250,6,22,35.982426,136.486721
旅館・ホテル,山本旅館,大野市泉町5ｰ10,0779-66-2644,6,26,35.983626,136.485924
旅館・ホテル,福井県奥越高原青少年自然の家,大野市南六呂師169ｰ8,0779-67-1321,38,500,36.023667,136.582603
旅館・ホテル,鳩ケ湯温泉旅館,大野市上打波6ｰ2,0779-65-6808,6,27,36.032474,136.680947
旅館・ホテル,民宿林湊,大野市西勝原14ｰ6,0779-65-6836,5,23,35.96832,136.595732
旅館・ホテル,プチホテルＰａＰａｍａｍａ,大野市朝日26ｰ29ｰ1,0779-78-2226,5,24,35.903781,136.661392
旅館・ホテル,九頭竜温泉ホテルフレアール和泉,大野市下山63ｰ2ｰ24,0779-78-2536,21,163,35.922164,136.645061
旅館・ホテル,国民宿舎パークホテル九頭竜,大野市角野14ｰ3,0779-78-2326,20,73,35.898445,136.653202
旅館・ホテル,越前町生涯学習センター糸生分館,丹生郡越前町小倉89ｰ53,,10,49,35.994132,136.094714
旅館・ホテル,さゝや別館,丹生郡越前町小倉89ｰ70,0778-34-5011,6,22,35.995779,136.097064
旅館・ホテル,泰澄の杜,丹生郡越前町小倉88ｰ55ｰ1,0778-34-2322,11,66,35.997623,136.093328
旅館・ホテル,旅館松葉館,丹生郡越前町西田中14ｰ6ｰ1,0778-34-0035,9,21,35.973055,136.128898
旅館・ホテル,安久旅館,丹生郡越前町織田114ｰ38,0778-36-0023,6,13,35.956961,136.055684
旅館・ホテル,オタイコヒルズ,丹生郡越前町下河原37ｰ19ｰ1,0778-36-2061,14,40,35.94887,136.057517
旅館・ホテル,越前陶芸村「若竹荘」,丹生郡越前町小曽原119ｰ1ｰ2,0778-32-2753,9,32,35.930265,136.063517
旅館・ホテル,樹香苑,丹生郡越前町小曽原7ｰ7ｰ1,0778-32-2332,5,18,35.932498,136.060548
旅館・ホテル,浜善旅館,丹生郡越前町左右3ｰ16,0778-37-0264,10,15,35.987509,135.963289
旅館・ホテル,あたらしや旅館,丹生郡越前町左右4ｰ14,0778-37-0261,11,15,35.9879,135.962662
旅館・ホテル,越前玉川の宿岩本屋,丹生郡越前町玉川19ｰ17,0778-37-0194,14,42,35.968778,135.968701
旅館・ホテル,旅館本家,丹生郡越前町玉川19ｰ20,0778-37-1247,7,44,35.96858,135.968639
旅館・ホテル,古八旅館,丹生郡越前町玉川39ｰ36,0778-37-0251,9,22,35.969136,135.968664
旅館・ホテル,玉島荘,丹生郡越前町玉川39ｰ41,0778-37-0285,15,35,35.969047,135.967998
旅館・ホテル,甚平旅館,丹生郡越前町玉川41ｰ2ｰ1,0778-37-0243,15,57,35.970183,135.966876
旅館・ホテル,越前の宿秀竹,丹生郡越前町玉川39ｰ22,0778-37-0375,7,48,35.968983,135.968528
旅館・ホテル,越前岬温泉湯元館,丹生郡越前町梅浦114ｰ7,0778-37-0772,5,9,35.959371,135.975292
旅館・ホテル,ふるさとの宿こばせ,丹生郡越前町梅浦58ｰ8,0778-37-0018,22,117,35.954147,135.981883
旅館・ホテル,かしま,丹生郡越前町梅浦61ｰ7ｰ1,0778-37-0052,6,20,35.952766,135.985689
旅館・ホテル,旅館木村屋,丹生郡越前町大樟7ｰ38,0778-37-0070,10,22,35.939524,135.993658
旅館・ホテル,はせ,丹生郡越前町道口8ｰ42,0778-37-1580,5,13,35.932978,135.999058
旅館・ホテル,なかの,丹生郡越前町道口9ｰ9,0778-37-1578,6,14,35.932142,135.998527
旅館・ホテル,料理宿やまざき,丹生郡越前町厨16字仲保53ｰ1,0778-37-1016,6,65,35.927342,135.998463
旅館・ホテル,越前海の宿・民宿品野,丹生郡越前町厨7ｰ30ｰ1,0778-37-1136,8,48,35.931175,135.998255
旅館・ホテル,旅館金龍,丹生郡越前町厨17ｰ51ｰ2,0778-37-1052,14,39,35.926637,135.998419
旅館・ホテル,うおたけ,丹生郡越前町厨17字83,0778-37-1099,18,44,35.925665,135.998391
旅館・ホテル,越前くりや温泉あらき,丹生郡越前町厨25ｰ22,0778-37-1421,13,48,35.925595,135.999024
旅館・ホテル,みや本,丹生郡越前町厨26ｰ13ｰ1,0778-37-0878,6,19,35.925359,135.998644
旅館・ホテル,民宿かねとも,丹生郡越前町厨49ｰ1ｰ10,0778-37-1880,10,36,35.912214,135.995783
旅館・ホテル,いまい旅館,丹生郡越前町厨7ｰ13,0778-37-1051,10,23,35.930925,135.999435
旅館・ホテル,旅篭おけや,丹生郡越前町厨70ｰ181ｰ1,0778-37-1434,10,20,35.917785,135.996989
旅館・ホテル,旅館明石,丹生郡越前町厨71号280番地の1,0778-37-0880,7,18,35.923201,135.997725
旅館・ホテル,民宿あらや,丹生郡越前町茂原5ｰ52,0778-39-1144,8,17,35.909684,135.997061
旅館・ホテル,民宿しまや,丹生郡越前町茂原5ｰ13,0778-39-1063,8,21,35.910836,135.996883
旅館・ホテル,民宿おもや,丹生郡越前町茂原5ｰ26,0778-39-1052,13,32,35.910425,135.996789
旅館・ホテル,旅館はまゆう,丹生郡越前町茂原5ｰ40ｰ1,0778-39-1230,19,140,35.91005,135.99675
旅館・ホテル,なかむら,丹生郡越前町茂原9ｰ23ｰ2,0778-39-1140,9,16,35.908986,135.997097
旅館・ホテル,日本海,丹生郡越前町茂原上龍ｹ浜20ｰ1,0778-39-1236,8,19,,
旅館・ホテル,民なのお宿かわもと,丹生郡越前町高佐20ｰ4,0778-39-1919,7,11,35.901943,135.997767
旅館・ホテル,平成,丹生郡越前町高佐27ｰ2ｰ1,0778-39-1221,15,33,35.899893,135.996675
旅館・ホテル,りぞうと旅館宿かり,丹生郡越前町高佐32ｰ4ｰ5,0778-39-1555,10,58,35.897552,135.996145
旅館・ホテル,浜富,丹生郡越前町米ﾉ41ｰ17ｰ7,0778-39-1003,11,37,35.893377,135.995776
旅館・ホテル,旅館海幸苑,丹生郡越前町米ﾉ53ｰ46ｰ1,0778-39-1336,8,27,35.887593,135.997792
旅館・ホテル,大西旅館,丹生郡越前町米ﾉ62ｰ52ｰ2,0778-39-1331,13,42,35.883665,135.999551
旅館・ホテル,旅館うらしま,丹生郡越前町米ﾉ62ｰ69ｰ2,0778-39-1175,13,56,35.885515,135.997922
旅館・ホテル,民宿小林,丹生郡越前町米ﾉ71ｰ49ｰ37,0778-39-1121,10,23,35.8884,135.995079
旅館・ホテル,大正館,丹生郡越前町米ﾉ71ｰ49ｰ9,0778-39-1234,14,59,35.8885,135.995134
旅館・ホテル,海昇園,敦賀市松島浜町116ｰ30,0770-22-5299,5,17,35.656127,136.056418
旅館・ホテル,きくや旅館,敦賀市津内3丁目4-9,0770-25-1159,10,35,35.638365,136.071117
旅館・ホテル,桑野旅館,敦賀市新保49ｰ40,,13,33,35.701683,136.131578
旅館・ホテル,ホテルセピア,敦賀市中24ｰ31ｰ1,0770-22-5271,8,26,35.643459,136.086728
旅館・ホテル,ホテルヴィラエステート,敦賀市中45生水尻7ｰ1,0770-21-5051,12,84,35.640143,136.085573
旅館・ホテル,ホテルヴィラ敦賀店,敦賀市中44号川尻28番,0770-25-2155,15,63,35.642112,136.086117
旅館・ホテル,北国グランドホテル,敦賀市中80号1ｰ3,0770-22-4551,48,360,35.639071,136.086643
旅館・ホテル,ホテルコンチネンタル敦賀店,敦賀市中48ｰ2ｰ1,0770-21-6969,34,317,35.637912,136.084237
旅館・ホテル,ホテルＬｅａｆ,敦賀市谷27号東吉河沢3番地,0770-20-1155,8,48,35.631171,136.091589
旅館・ホテル,ビジネスホテルリビエラ,敦賀市岡山町2丁目48ｰ4ｰ18,0770-24-2331,25,60,35.628921,136.0725
旅館・ホテル,ビジネスホテルクォーレ,敦賀市古田刈16号水掛7番1外4筆,0770-23-6161,124,264,35.632898,136.064723
旅館・ホテル,ホテルα－１敦賀バイパス,敦賀市古田刈1ｰ1ｰ1,0770-21-2323,144,391,35.632526,136.067842
旅館・ホテル,元村,敦賀市本町1丁目5ｰ22,,5,16,35.651975,136.074093
旅館・ホテル,井筒別館,敦賀市清水町1丁目20ｰ7,0770-23-5555,13,32,35.65263,136.075407
旅館・ホテル,ビジネスホテル山形,敦賀市白銀町5ｰ30,0770-25-5288,19,39,35.645672,136.074827
旅館・ホテル,ビジネスホテル山形,敦賀市白銀町5ｰ30,0770-25-5288,11,38,35.645672,136.074827
旅館・ホテル,東横イン敦賀駅前,敦賀市白銀町5ｰ20,0770-20-1045,166,337,35.646083,136.073958
旅館・ホテル,ビジネスホテルスイートピー,敦賀市白銀町5ｰ29,0770-23-5793,9,22,35.645778,136.07473
旅館・ホテル,ビジネスホテル文楽,敦賀市白銀町2ｰ2,0770-25-4694,14,20,35.646897,136.076132
旅館・ホテル,まるきん,敦賀市白銀町,,9,23,35.64575,136.074219
旅館・ホテル,松屋旅館,敦賀市白銀町1ｰ15,0770-22-0135,8,26,35.645681,136.076221
旅館・ホテル,白銀旅館,敦賀市白銀町4ｰ23,0770-22-4871,5,15,35.646681,136.074657
旅館・ホテル,ホテルルートイン敦賀駅前,敦賀市鉄輪町1丁目6ｰ2,0770-21-2232,140,297,35.645292,136.07436
旅館・ホテル,わたなべ,敦賀市津内町2丁目1ｰ32,0770-22-0641,8,28,35.651019,136.071694
旅館・ホテル,㈲つるや旅館,敦賀市津内町2丁目1ｰ5,0770-22-0315,16,65,35.650791,136.071702
旅館・ホテル,（有）ビジネスホテル水仙,敦賀市開町5ｰ3,0770-22-1112,13,28,35.64713,136.068275
旅館・ホテル,まつしま旅館,敦賀市三島町3丁目32ｰ7ｰ4,0770-22-1888,9,28,35.646358,136.065036
旅館・ホテル,敦賀マンテンホテル駅前,敦賀市国広町401ｰ4,0770-25-0100,143,292,35.6461,136.076904
旅館・ホテル,㈲あみや旅館,敦賀市蓬莱町14ｰ9,0770-22-3188,12,56,35.657196,136.067191
旅館・ホテル,観光ホテル,敦賀市川崎町2ｰ8,0770-22-0063,35,200,35.657332,136.065114
旅館・ホテル,寺川荘,敦賀市川崎町3ｰ24,0770-22-0739,28,64,35.656249,136.06505
旅館・ホテル,（牧芳雄）,敦賀市元町11ｰ10,,17,27,35.655744,136.073182
旅館・ホテル,ホテルセレクトイン敦賀,敦賀市野神15ｰ8ｰ12,0770-25-6111,50,110,35.637695,136.058907
旅館・ホテル,ビジネス旅館なかじま,敦賀市野神1ｰ36,0770-22-2690,23,57,35.635098,136.054264
旅館・ホテル,敦賀市立少年自然の家,敦賀市野坂80号15番地,0770-24-0052,34,238,35.621077,136.027925
旅館・ホテル,橋本屋,敦賀市杉津8ｰ11,0770-28-1240,5,23,35.738039,136.096376
旅館・ホテル,丁持屋,敦賀市杉津3ｰ5,0770-28-1006,9,29,35.737161,136.094651
旅館・ホテル,松屋,敦賀市江良9ｰ10,,5,24,35.704732,136.084074
旅館・ホテル,本多旅館,敦賀市江良7ｰ161,0770-28-1133,5,18,35.704352,136.08226
旅館・ホテル,ホテルＪＩＮ,敦賀市赤崎83,0770-22-3647,9,27,35.680219,136.085188
旅館・ホテル,㈲のんきや,敦賀市赤崎44ｰ22ｰ1,0770-22-5706,7,13,35.682674,136.086313
旅館・ホテル,ぎょうぶ荘,敦賀市鞠山91ｰ44,0770-23-2818,5,22,35.678091,136.080164
旅館・ホテル,レストハウス美松,敦賀市山中,0770-27ｰ1231,11,48,35.547306,136.099016
旅館・ホテル,あたらしや旅館,敦賀市松島町7ｰ32,0770-22-3467,33,114,35.653266,136.05882
旅館・ホテル,安田旅館,敦賀市松島町116ｰ6,0770-23-1958,5,16,35.654988,136.05796
旅館・ホテル,岸,敦賀市松島町11ｰ13,0770-23-3741,5,14,35.653629,136.057906
旅館・ホテル,岸,敦賀市松島町10ｰ30,0770-23-3741,5,15,35.653374,136.057973
旅館・ホテル,幾野旅館,敦賀市松島町23ｰ25,0770-22-2393,8,23,35.65411,136.05659
旅館・ホテル,高松,敦賀市松島町114ｰ28,0770-22-2213,7,21,35.654988,136.05796
旅館・ホテル,松口旅館,敦賀市松島町12ｰ15,0770-23-4481,8,28,35.65461,136.058506
旅館・ホテル,松本荘,敦賀市松島町113ｰ43,0770-22-5953,8,28,35.654771,136.05829
旅館・ホテル,長野,敦賀市松島町20ｰ10,0770-23-0358,5,28,35.654065,136.057373
旅館・ホテル,辻旅館,敦賀市松島町4ｰ14,0770-23-0134,7,15,35.654179,136.059051
旅館・ホテル,尼崎信用金庫望海館,敦賀市松島町3ｰ32,0770-22-5034,11,31,35.654974,136.059409
旅館・ホテル,別館辻,敦賀市松島町5ｰ19,0770-23-0134,6,21,35.653996,136.05939
旅館・ホテル,保東旅館,敦賀市松島町7ｰ19,0770-22-1964,35,85,35.652749,136.059398
旅館・ホテル,旅館松下,敦賀市松島町116ｰ30,0770-22-5383,6,17,35.655585,136.056451
旅館・ホテル,旅館百萬石,敦賀市松島町14ｰ20,0770-22-5944,11,38,35.655093,136.057917
旅館・ホテル,ビジネス旅館気見宿,敦賀市松原町1番35号,0770-24-0900,16,40,35.652218,136.054401
旅館・ホテル,松原旅館,敦賀市松原町7ｰ14,0770-22-2984,5,17,35.652343,136.053615
旅館・ホテル,ビジネス旅館まつや,敦賀市中央町2丁目21ｰ10,0770-22-0810,17,52,35.644805,136.051141
旅館・ホテル,ホテルアルファワン敦賀,敦賀市中央町1丁目6ｰ2,0770-22-9900,117,252,35.642905,136.058413
旅館・ホテル,竹野旅館,敦賀市中央町2丁目12ｰ2,0770-25-4867,30,73,35.644952,136.052885
旅館・ホテル,ビジネスホテルシュトローム,敦賀市昭和町1丁目2ｰ14,0770-25-5001,49,113,35.644625,136.063312
旅館・ホテル,ビジネス旅館こてつ,敦賀市昭和町1丁目12ｰ13,0770-24-1880,10,30,35.645797,136.062176
旅館・ホテル,レストホテルなかま,敦賀市昭和町2丁目20ｰ23,0770-25-2700,11,39,35.6385,136.058238
旅館・ホテル,ニューサンピア敦賀,敦賀市呉羽町2番地,0770-24-2111,38,267,35.640278,136.05546
旅館・ホテル,魚平,敦賀市平和町19ｰ18,0770-25-1137,5,15,35.648921,136.050277
旅館・ホテル,魚平西壱番館,敦賀市平和町22ｰ42,0770-25-1137,10,28,35.648691,136.0497
旅館・ホテル,ＭＣＲｅｓｏｒｔ,敦賀市櫛川41号2ｰ1,0770-47-5274,9,65,35.65662,136.044058
旅館・ホテル,おもや,敦賀市沓19ｰ3,0770-26-1601,9,13,35.694276,136.035485
旅館・ホテル,しらすや,敦賀市沓19ｰ16,0770-26-1603,9,35,35.694285,136.034783
旅館・ホテル,ひがし旅館,敦賀市沓18ｰ7,0770-26-1611,6,32,35.694482,136.035938
旅館・ホテル,はま,敦賀市常宮13ｰ35,,6,19,35.68901,136.028992
旅館・ホテル,ビジネス旅館はま,敦賀市常宮13号西ﾉ前33番1,0770-26-1735,10,24,35.688902,136.028529
旅館・ホテル,森本荘,敦賀市常宮13ｰ7,0770-26-1057,9,23,35.690954,136.030058
旅館・ホテル,伝平荘,敦賀市縄間29ｰ14ｰ2,0770-22-4236,8,28,35.684275,136.02549
旅館・ホテル,伝平荘,敦賀市縄間29ｰ14ｰ2,0770-22-4236,11,48,35.684275,136.02549
旅館・ホテル,伝平荘,敦賀市縄間29ｰ14ｰ2,0770-22-4236,9,20,35.684275,136.02549
旅館・ホテル,えんや旅館,敦賀市名子14ｰ10,0770-23-2468,9,22,35.675423,136.032051
旅館・ホテル,海辺の宿長兵衛,敦賀市名子14ｰ43ｰ3,0770-23-7818,7,51,35.688902,136.028528
旅館・ホテル,民宿とね,敦賀市名子14ｰ40ｰ1,0770-23-0881,10,34,35.675943,136.031339
旅館・ホテル,おもや旅館,敦賀市浦底5ｰ17,0770-26-1615,12,37,35.737026,136.027588
旅館・ホテル,かんた旅館,敦賀市浦底70,0770-26-1929,7,26,35.736079,136.027604
旅館・ホテル,味一旅館,敦賀市浦底4ｰ6ｰ1,0770-26-1626,6,23,35.736182,136.028974
旅館・ホテル,旅館きたの,敦賀市浦底6ｰ20,0770-26-1910,10,31,35.736776,136.028168
旅館・ホテル,かねや旅館,敦賀市浦底6ｰ18,0770-26-1605,8,34,35.736221,136.028651
旅館・ホテル,ＢアンドＢＢＥＡＣＨＣＯＭＢＥＲ,敦賀市色浜22ｰ4ｰ3,0770-26-1707,8,26,35.726916,136.036012
旅館・ホテル,おもや旅館,敦賀市色浜31ｰ26,0770-26-1721,10,41,35.730352,136.034631
旅館・ホテル,ちく宝,敦賀市色浜31ｰ23,0770-26-1036,12,37,35.730069,136.034748
旅館・ホテル,みずしま,敦賀市色浜27ｰ5ｰ3,0770-23-0388,17,82,35.728236,136.035768
旅館・ホテル,やまぐち旅館,敦賀市色浜32ｰ3,0770-26-1458,7,23,35.730827,136.034031
旅館・ホテル,伊呂波,敦賀市色浜31号5ｰ1,0770-26-1722,11,34,35.729905,136.035451
旅館・ホテル,民宿別館おもや,敦賀市色浜26ｰ13ｰ1,0770-26-1080,9,30,35.728233,136.036537
旅館・ホテル,弥五郎旅館,敦賀市色浜31ｰ33,0770-26-1444,6,22,35.730249,136.03419
旅館・ホテル,遊三閣,敦賀市色浜28ｰ24ｰ3,0770-26-1616,8,42,35.729372,136.036198
旅館・ホテル,旅館なかい,敦賀市色浜30ｰ6,0770-26-1723,9,45,35.729363,136.035584
旅館・ホテル,あけぼの,敦賀市手29,,16,73,35.710688,136.037679
旅館・ホテル,やました,敦賀市手5ｰ13,0770-26-1703,8,61,35.71424,136.038743
旅館・ホテル,やまもと荘,敦賀市手6ｰ3,0770-26-1900,12,36,35.712118,136.038176
旅館・ホテル,勝浦荘,敦賀市手24号上中田10ｰ1,0770-26-1054,10,39,35.711261,136.038144
旅館・ホテル,石山,敦賀市手20号中堀7,0770-24-1446,8,28,35.711255,136.038137
旅館・ホテル,石川荘,敦賀市手5ｰ6,0770-26-1059,15,57,35.713868,136.039279
旅館・ホテル,川端荘,敦賀市手6ｰ2,0770-26-1134,8,31,35.713538,136.03864
旅館・ホテル,旅館北上,敦賀市手4ｰ11,0770-26-1747,6,24,35.714368,136.039184
旅館・ホテル,中川旅館,敦賀市白木1丁目14,,9,30,35.73132,135.976438
旅館・ホテル,浜崎,敦賀市白木1丁目13,,8,30,35.731545,135.976491
旅館・ホテル,民宿宗野,南条郡南越前町大谷2ｰ22,0778-48-2869,7,16,35.782934,136.097521
旅館・ホテル,やまひさ,南条郡南越前町河野19ｰ6,0778-48-2799,6,12,35.822914,136.07252
旅館・ホテル,旅館山上家,南条郡南越前町河野44ｰ5,0778-48-2047,7,15,35.822887,136.071875
旅館・ホテル,ふじの,南条郡南越前町甲楽城12ｰ35,0778-48-2518,5,20,35.837148,136.052691
旅館・ホテル,山びこ,南条郡南越前町甲楽城9ｰ68,0778-48-2361,6,13,35.838603,136.051674
旅館・ホテル,泉,南条郡南越前町糠106ｰ1ｰ26,0778-28-2644,5,7,35.854456,136.03424
旅館・ホテル,青木旅館,南条郡南越前町糠106字長島1ｰ6,0778-48-2575,8,18,35.853801,136.035028
旅館・ホテル,ながしま荘,南条郡南越前町糠106字長嶋,0778-48-2624,9,19,35.853801,136.035028
旅館・ホテル,うみの宿さへい,南条郡南越前町糠12ｰ21,0778-48-2738,7,14,35.849596,136.040478
旅館・ホテル,清海館,南条郡南越前町糠12ｰ31,0778-48-2026,14,53,35.84924,136.040903
旅館・ホテル,ホテルはま屋,南条郡南越前町糠12ｰ9,0778-48-2453,9,26,35.850074,136.039934
旅館・ホテル,水仙,南条郡南越前町糠大比良,0778-48-2712,11,23,35.71266,136.036601
旅館・ホテル,今庄ふるさと交流センターきらめき,南条郡南越前町古木50ｰ59,0778-45-1310,8,61,35.794232,136.266032
旅館・ホテル,ロッジ３６５,南条郡南越前町板取85ｰ4,0778-45-1414,10,44,35.721708,136.149336
旅館・ホテル,旅館川端屋,南条郡南越前町今庄60ｰ49,0778-45-0022,11,47,35.774271,136.19564
旅館・ホテル,今庄サイクリングターミナル,南条郡南越前町今庄85ｰ2,0778-45-0073,22,89,35.772874,136.200929
旅館・ホテル,花はす温泉そまやま,南条郡南越前町中小屋60ｰ1,0778-47-3368,16,131,35.808829,136.227264
